{
  "baseUrl": "https://50735.wiremockapi.cloud",
  "searchPath": "/search",
  "searchQuery": "name",
  "minimumSearchQueryLength": 3,
  "searchInputDebounse": 1200,
  "cities": [
    { "name": "Amsterdam", "lat": 52.3676, "lng": 4.9041 },
    { "name": "Athens", "lat": 37.9838, "lng": 23.7275 },
    { "name": "Barcelona", "lat": 41.3851, "lng": 2.1734 },
    { "name": "Berlin", "lat": 52.52, "lng": 13.405 },
    { "name": "Brussels", "lat": 50.8503, "lng": 4.3517 },
    { "name": "Budapest", "lat": 47.4979, "lng": 19.0402 },
    { "name": "Copenhagen", "lat": 55.6761, "lng": 12.5683 },
    { "name": "Dublin", "lat": 53.3331, "lng": -6.2489 },
    { "name": "Edinburgh", "lat": 55.9533, "lng": -3.1883 },
    { "name": "Florence", "lat": 43.7696, "lng": 11.2558 },
    { "name": "Frankfurt", "lat": 50.1109, "lng": 8.6821 },
    { "name": "Helsinki", "lat": 60.1695, "lng": 24.9354 },
    { "name": "Istanbul", "lat": 41.0082, "lng": 28.9784 },
    { "name": "Kyiv", "lat": 50.4501, "lng": 30.5234 },
    { "name": "Lisbon", "lat": 38.7223, "lng": -9.1393 },
    { "name": "Lviv", "lat": 49.8397, "lng": 24.0297 },
    { "name": "Ljubljana", "lat": 46.0511, "lng": 14.5051 },
    { "name": "London", "lat": 51.5074, "lng": -0.1278 },
    { "name": "Madrid", "lat": 40.4168, "lng": -3.7038 },
    { "name": "Milan", "lat": 45.4642, "lng": 9.19 },
    { "name": "Munich", "lat": 48.1351, "lng": 11.582 },
    { "name": "Oslo", "lat": 59.9139, "lng": 10.7522 },
    { "name": "Paris", "lat": 48.8566, "lng": 2.3522 },
    { "name": "Prague", "lat": 50.0755, "lng": 14.4378 },
    { "name": "Reykjavik", "lat": 64.1265, "lng": -21.8174 },
    { "name": "Rome", "lat": 41.9028, "lng": 12.4964 },
    { "name": "Stockholm", "lat": 59.3293, "lng": 18.0686 },
    { "name": "Tallinn", "lat": 59.437, "lng": 24.7535 },
    { "name": "Vienna", "lat": 48.2082, "lng": 16.3738 },
    { "name": "Warsaw", "lat": 52.2297, "lng": 21.0122 },
    { "name": "Zagreb", "lat": 45.815, "lng": 15.9819 },
    { "name": "Zurich", "lat": 47.3769, "lng": 8.5417 }
  ]
}
